{
    "places": [
        {
            "id": 1,
            "address": "Олимпийский проспект, д.10, стр.7",
            "long": 37.621678,
            "lat": 55.778137,
            "found": "Олимпийский проспект, 10с7"
        },
        {
            "id": 2,
            "address": "Площадь Пречистенские Ворота, д.1 (вл.1, стр.2)",
            "long": 37.601034,
            "lat": 55.745301,
            "found": "площадь Пречистенские Ворота, вл1с4"
        },
        {
            "id": 3,
            "address": "Площадь Пречистенские Ворота, д.1 (вл.1, стр.6)",
            "long": 37.601034,
            "lat": 55.745301,
            "found": "площадь Пречистенские Ворота, вл1с4"
        },
        {
            "id": 4,
            "address": "Ул. Пресненский Вал, д.1/2, стр.2",
            "long": 37.563287,
            "lat": 55.763604,
            "found": "улица Пресненский Вал, 1/2с2"
        },
        {
            "id": 5,
            "address": "Ул. Пресненский Вал, д.1/2, стр.3",
            "long": 37.563233,
            "lat": 55.763883,
            "found": "улица Пресненский Вал, 1/2с3"
        },
        {
            "id": 6,
            "address": "Ул. 1905 года, д.4, стр.2",
            "long": 37.561796,
            "lat": 55.764415,
            "found": "улица 1905 года, 4с2"
        },
        {
            "id": 7,
            "address": "Звенигородское шоссе, д.1, стр.1",
            "long": 37.559945,
            "lat": 55.763088,
            "found": "Звенигородское шоссе, 1с1"
        },
        {
            "id": 8,
            "address": "Ул. Садовая-Сухаревская, д.8/12, стр.6",
            "long": 37.6259,
            "lat": 55.77315,
            "found": "Садовая-Сухаревская улица, 8/12"
        },
        {
            "id": 9,
            "address": "Ул. Коровий Вал, д.1, соор.2А",
            "long": 37.622756,
            "lat": 55.729422,
            "found": "улица Коровий Вал, 1соор2А"
        },
        {
            "id": 10,
            "address": "Зубовский бульвар, д.5, стр.3",
            "long": 37.593345,
            "lat": 55.734927,
            "found": "Зубовский бульвар, 5с3"
        },
        {
            "id": 11,
            "address": "Зубовский бульвар, д.35, стр.4",
            "long": 37.586194,
            "lat": 55.737071,
            "found": "Зубовский бульвар, 35с3"
        },
        {
            "id": 12,
            "address": "Ружейный пер. д. 1",
            "long": 37.582269,
            "lat": 55.743426,
            "found": "Ружейный переулок, 1"
        },
        {
            "id": 13,
            "address": "Семеновская набережная, д. ВЛ 3/1, стр. 17",
            "long": 37.562856,
            "lat": 55.841832,
            "found": "улица Линии Октябрьской Железной Дороги, вл1"
        },
        {
            "id": 14,
            "address": "Ул. Костромская, д.19В",
            "long": 37.60125,
            "lat": 55.884009,
            "found": "Костромская улица, 19Ж"
        },
        {
            "id": 15,
            "address": "Ярославское шоссе, д.55, корп.1, стр.1",
            "long": 37.690938,
            "lat": 55.861434,
            "found": "Ярославское шоссе, 55к1"
        },
        {
            "id": 16,
            "address": "Ул. Снежная, д.26Б",
            "long": 37.653721,
            "lat": 55.85534,
            "found": "Снежная улица, 26Б"
        },
        {
            "id": 17,
            "address": "Ул. Бутырская, д.6, корп.3, стр.1",
            "long": 37.584766,
            "lat": 55.795519,
            "found": "Бутырская улица, 6к3с1"
        },
        {
            "id": 18,
            "address": "Ул. Бутырская, д.86Г",
            "long": 37.581721,
            "lat": 55.808139,
            "found": "Бутырская улица, 86Г"
        },
        {
            "id": 19,
            "address": "Ул. Бутырская вл.84А",
            "long": 37.582538,
            "lat": 55.805943,
            "found": "Бутырская улица, вл84А"
        },
        {
            "id": 20,
            "address": "Ул. Бутырская, вл.84Б",
            "long": 37.582673,
            "lat": 55.806267,
            "found": "Бутырская улица, 84"
        },
        {
            "id": 21,
            "address": "Ул. Декабристов, д.17Г",
            "long": 37.60576,
            "lat": 55.864692,
            "found": "улица Декабристов, вл17Г"
        },
        {
            "id": 22,
            "address": "Ул. Плещеева, д.8Г",
            "long": 37.606918,
            "lat": 55.884494,
            "found": "улица Плещеева, 8Г"
        },
        {
            "id": 23,
            "address": "Ул. Большая Семеновская, вл.15А, стр.1",
            "long": 37.705616,
            "lat": 55.782587,
            "found": "Большая Семёновская улица, 15Ас1"
        },
        {
            "id": 24,
            "address": "Ул. Первомайская, д.77, стр.3",
            "long": 37.800182,
            "lat": 55.793414,
            "found": "Первомайская улица, 77с3"
        },
        {
            "id": 25,
            "address": "Ул. Первомайская, д.77, стр.4",
            "long": 37.800236,
            "lat": 55.793379,
            "found": "Первомайская улица, 77с4"
        },
        {
            "id": 26,
            "address": "Ул. Первомайская, д.77, стр.5",
            "long": 37.800442,
            "lat": 55.793384,
            "found": "Первомайская улица, 77с5"
        },
        {
            "id": 27,
            "address": "Ул. Первомайская, д.77, стр.6",
            "long": 37.800622,
            "lat": 55.793394,
            "found": "Первомайская улица, 77с6"
        },
        {
            "id": 28,
            "address": "Ул. Первомайская, д.77, стр.7",
            "long": 37.79993,
            "lat": 55.793779,
            "found": "Первомайская улица, 77с7"
        },
        {
            "id": 29,
            "address": "Ул. Уральская, вл.4Б, стр.1",
            "long": 37.799328,
            "lat": 55.811396,
            "found": "Уральская улица, 4Бс1"
        },
        {
            "id": 30,
            "address": "Ул. Большая Семеновская, д.26, стр.2",
            "long": 37.705967,
            "lat": 55.781793,
            "found": "Большая Семёновская улица, 26с2"
        },
        {
            "id": 31,
            "address": "Ул. Большая Семеновская, д.26, стр.7",
            "long": 37.706137,
            "lat": 55.781524,
            "found": "Большая Семёновская улица, 26с7"
        },
        {
            "id": 32,
            "address": "Измайловский проспект, д. 63 (просп. Измайловский д. 63, стр. 2)",
            "long": 37.785512,
            "lat": 55.788652,
            "found": "Измайловский проспект, 63"
        },
        {
            "id": 33,
            "address": "Ул. 2-я Владимирская, д. 36А (ул. 2-я Владимирская, д. 36А, стр. 1",
            "long": 37.783922,
            "lat": 55.751558,
            "found": "2-я Владимирская улица, 36Ас1"
        },
        {
            "id": 34,
            "address": "Свободный проспект, д. 22, стр. 1",
            "long": 37.816226,
            "lat": 55.750515,
            "found": "Свободный проспект, 22с1"
        },
        {
            "id": 35,
            "address": "Зеленый проспект, д. 57Г",
            "long": 37.803074,
            "lat": 55.753808,
            "found": "Зелёный проспект, 57Г"
        },
        {
            "id": 36,
            "address": "Ул. Красный Казанец, д. 18 (ул. Красный Казанец, д. 18, д. ВЛ. 18)",
            "long": 37.819163,
            "lat": 55.716098,
            "found": "улица Красный Казанец, вл18"
        },
        {
            "id": 37,
            "address": "Ул. Советская, д 80, стр. 5",
            "long": 37.749535,
            "lat": 55.798121,
            "found": "Советская улица, 80с5"
        },
        {
            "id": 38,
            "address": "Ул. Советская, д 80, стр. 6",
            "long": 37.749535,
            "lat": 55.798121,
            "found": "Советская улица, 80с5"
        },
        {
            "id": 39,
            "address": "Ул. Советская, д 80, стр. 7",
            "long": 37.750388,
            "lat": 55.79805,
            "found": "Советская улица, 80с8"
        },
        {
            "id": 40,
            "address": "Ул. Советская, д 80, стр. 8",
            "long": 37.750388,
            "lat": 55.79805,
            "found": "Советская улица, 80с8"
        },
        {
            "id": 41,
            "address": "Ул. Кусковская, д. 2",
            "long": 37.765938,
            "lat": 55.737111,
            "found": "Кусковская улица, 2А"
        },
        {
            "id": 42,
            "address": "Шоссе Энтузиастов, д.22А",
            "long": 37.717133,
            "lat": 55.750986,
            "found": "шоссе Энтузиастов, 22"
        },
        {
            "id": 43,
            "address": "Волгоградский проспект, вл. 78А, стр. 1",
            "long": 37.76318,
            "lat": 55.705331,
            "found": "Волгоградский проспект, 78А"
        },
        {
            "id": 44,
            "address": "Ул. Маршала Чуйкова, д. 2",
            "long": 37.763899,
            "lat": 55.704894,
            "found": "улица Маршала Чуйкова, вл2-4"
        },
        {
            "id": 45,
            "address": "Волжский бульвар, д. 54, стр. 1",
            "long": 37.754485,
            "lat": 55.690232,
            "found": "Волжский бульвар, 54с2"
        },
        {
            "id": 46,
            "address": "Волжский бульвар, д. 54, стр. 2",
            "long": 37.754485,
            "lat": 55.690232,
            "found": "Волжский бульвар, 54с2"
        },
        {
            "id": 47,
            "address": "Волжский бульвар, д. 54, стр. 4",
            "long": 37.754413,
            "lat": 55.690958,
            "found": "Волжский бульвар, 54с4"
        },
        {
            "id": 48,
            "address": "Волжский бульвар, д. 54, стр. 5",
            "long": 37.755015,
            "lat": 55.690867,
            "found": "Волжский бульвар, 54с5"
        },
        {
            "id": 49,
            "address": "Волжский бульвар, д. 54, стр. 6",
            "long": 37.755302,
            "lat": 55.690892,
            "found": "Волжский бульвар, 54с6"
        },
        {
            "id": 50,
            "address": "Ул. Шаболовка, д.30, стр.2",
            "long": 37.608984,
            "lat": 55.719181,
            "found": "улица Шаболовка, 30с2"
        },
        {
            "id": 51,
            "address": "2-й Кожевнический пер., вл.1А",
            "long": 37.6509,
            "lat": 55.72706,
            "found": "2-й Кожевнический переулок, 1А"
        },
        {
            "id": 52,
            "address": "Варшавское шоссе, вл. 32, корп. 1",
            "long": 37.622091,
            "lat": 55.681544,
            "found": "Варшавское шоссе, 32к1"
        },
        {
            "id": 53,
            "address": "Варшавское шоссе, вл. 32, корп. 1, стр. 2",
            "long": 37.622235,
            "lat": 55.681422,
            "found": "Варшавское шоссе, 32к1с2"
        },
        {
            "id": 54,
            "address": "Варшавское шоссе, вл. 32, корп. 1, стр. 3",
            "long": 37.622244,
            "lat": 55.681072,
            "found": "Варшавское шоссе, 32к1с3"
        },
        {
            "id": 55,
            "address": "Варшавское шоссе, вл. 32, корп. 1, стр. 4",
            "long": 37.62219,
            "lat": 55.680839,
            "found": "Варшавское шоссе, 32к1с4"
        },
        {
            "id": 56,
            "address": "Варшавское шоссе, вл. 32, корп. 1, стр. 5",
            "long": 37.621911,
            "lat": 55.680834,
            "found": "Варшавское шоссе, 32к1с5"
        },
        {
            "id": 57,
            "address": "Варшавское шоссе, вл. 32, корп. 1, стр. 6",
            "long": 37.62157,
            "lat": 55.68094,
            "found": "Варшавское шоссе, 32к1с6"
        },
        {
            "id": 58,
            "address": "Варшавское шоссе, вл. 32, корп. 1, стр. 7",
            "long": 37.62166,
            "lat": 55.681346,
            "found": "Варшавское шоссе, 32к1с7"
        },
        {
            "id": 59,
            "address": "Варшавское шоссе, вл. 32, корп. 1, стр. 8",
            "long": 37.621821,
            "lat": 55.681189,
            "found": "Варшавское шоссе, 32к1с8"
        },
        {
            "id": 60,
            "address": "Варшавское шоссе, вл. 32, корп. 1, стр. 9",
            "long": 37.621839,
            "lat": 55.68096,
            "found": "Варшавское шоссе, 32к1с9"
        },
        {
            "id": 61,
            "address": "Варшавское шоссе, вл. 32, корп. 1, стр. 10",
            "long": 37.622055,
            "lat": 55.681032,
            "found": "Варшавское шоссе, 32к1с10"
        },
        {
            "id": 62,
            "address": "Варшавское шоссе, вл. 32, корп. 1, стр. 11",
            "long": 37.622127,
            "lat": 55.681402,
            "found": "Варшавское шоссе, 32к1с11"
        },
        {
            "id": 63,
            "address": "Варшавское шоссе, вл. 32, корп. 1, стр. 12",
            "long": 37.621543,
            "lat": 55.681204,
            "found": "Варшавское шоссе, 32к1с12"
        },
        {
            "id": 64,
            "address": "Ул. Кировоградская, д. ВЛ.9, корп. 2Б (ул. Кировоградская, д. влд.9, стр. 1 Б/Н к.2)",
            "long": 37.559721,
            "lat": 55.84583,
            "found": "улица Линии Октябрьской Железной Дороги, 5с1"
        },
        {
            "id": 65,
            "address": "Ул. Кировоградская, д. ВЛ.9, корп. 2Г",
            "long": 37.559721,
            "lat": 55.84583,
            "found": "улица Линии Октябрьской Железной Дороги, 5с1"
        },
        {
            "id": 66,
            "address": "Ул. Кировоградская, д. ВЛ.12Б",
            "long": 37.562685,
            "lat": 55.844445,
            "found": "улица Линии Октябрьской Железной Дороги, 12/2"
        },
        {
            "id": 67,
            "address": "Ул. Кировоградская, д. ВЛ.9, корп. 4А",
            "long": 37.559721,
            "lat": 55.84583,
            "found": "улица Линии Октябрьской Железной Дороги, 5с1"
        },
        {
            "id": 68,
            "address": "Варшавское шоссе, д. ВЛ. 135А",
            "long": 37.565443,
            "lat": 55.842373,
            "found": "улица Линии Октябрьской Железной Дороги"
        },
        {
            "id": 69,
            "address": "Варшавское шоссе, д. ВЛ. 135А, стр. 2",
            "long": 37.565443,
            "lat": 55.842373,
            "found": "улица Линии Октябрьской Железной Дороги"
        },
        {
            "id": 70,
            "address": "Варшавское шоссе, д. ВЛ. 135А, стр. 3",
            "long": 37.565443,
            "lat": 55.842373,
            "found": "улица Линии Октябрьской Железной Дороги"
        },
        {
            "id": 71,
            "address": "Варшавское шоссе, д. ВЛ. 135А, стр. 4",
            "long": 37.565443,
            "lat": 55.842373,
            "found": "улица Линии Октябрьской Железной Дороги"
        },
        {
            "id": 72,
            "address": "Ул. Генерала Белова, д. 33/19, стр. 2",
            "long": 37.722091,
            "lat": 55.613316,
            "found": "улица Генерала Белова, 33/19"
        },
        {
            "id": 73,
            "address": "Проспект Андропова, д. 21Г",
            "long": 37.665444,
            "lat": 55.679138,
            "found": "проспект Андропова, 21"
        },
        {
            "id": 74,
            "address": "Ленинский проспект, вл.45В, стр.1",
            "long": 37.573672,
            "lat": 55.703545,
            "found": "Ленинский проспект, вл45Вс1"
        },
        {
            "id": 75,
            "address": "Ленинский проспект, вл.45В, стр.2",
            "long": 37.573321,
            "lat": 55.703347,
            "found": "Ленинский проспект, вл45Вс2"
        },
        {
            "id": 76,
            "address": "Новоясеневский проспект, вл. 2А, стр. 1",
            "long": 37.505813,
            "lat": 55.617729,
            "found": "Новоясеневский проспект, 2Ас1"
        },
        {
            "id": 77,
            "address": "Новоясеневский проспект, вл. 2А, стр. 1",
            "long": 37.505813,
            "lat": 55.617729,
            "found": "Новоясеневский проспект, 2Ас1"
        },
        {
            "id": 78,
            "address": "Новоясеневский проспект, вл. 1, стр. 1",
            "long": 37.506711,
            "lat": 55.619376,
            "found": "Новоясеневский проспект, 1к1"
        },
        {
            "id": 79,
            "address": "Ул. Профсоюзная, д. 129, стр. 1",
            "long": 37.506774,
            "lat": 55.619976,
            "found": "Профсоюзная улица, 129с1"
        },
        {
            "id": 80,
            "address": "Ул. Профсоюзная, д. 150, стр. 2",
            "long": 37.506837,
            "lat": 55.622182,
            "found": "Профсоюзная улица, 150с2"
        },
        {
            "id": 81,
            "address": "Ул. Профсоюзная, д. 152, стр. 1",
            "long": 37.506514,
            "lat": 55.621872,
            "found": "Профсоюзная улица, 152с1"
        },
        {
            "id": 82,
            "address": "Ул. Профсоюзная, д. 154Г, стр. 2",
            "long": 37.505777,
            "lat": 55.620509,
            "found": "Профсоюзная улица, вл154Гс2"
        },
        {
            "id": 83,
            "address": "Ул. Юшуньская Малая, д.ВЛ.1В, стр. 1",
            "long": 37.562856,
            "lat": 55.841832,
            "found": "улица Линии Октябрьской Железной Дороги, вл1"
        },
        {
            "id": 84,
            "address": "Ул. Юшуньская Малая, д.ВЛ.1В, стр. 2",
            "long": 37.562856,
            "lat": 55.841832,
            "found": "улица Линии Октябрьской Железной Дороги, вл1"
        },
        {
            "id": 85,
            "address": "Ул. Юшуньская Большая, вл.1, стр. 1",
            "long": 37.5978,
            "lat": 55.652705,
            "found": "Большая Юшуньская улица, 1с1"
        },
        {
            "id": 86,
            "address": "Нахимовский проспект, д. 9, корп. 1, стр. 1",
            "long": 37.60779,
            "lat": 55.663827,
            "found": "Нахимовский проспект, 9к1с1"
        },
        {
            "id": 87,
            "address": "Нахимовский проспект, д. 9, корп. 1, стр. 2",
            "long": 37.608338,
            "lat": 55.663695,
            "found": "Нахимовский проспект, 9к1с2"
        },
        {
            "id": 88,
            "address": "Нахимовский проспект, д. 9, корп. 1, стр. 3",
            "long": 37.608634,
            "lat": 55.663756,
            "found": "Нахимовский проспект, 9к1с3"
        },
        {
            "id": 89,
            "address": "Ул. Азовская, д. ВЛ.3, стр. 1",
            "long": 37.562856,
            "lat": 55.841832,
            "found": "улица Линии Октябрьской Железной Дороги, вл1"
        },
        {
            "id": 90,
            "address": "Багратионовский проезд, д.2А",
            "long": 37.514212,
            "lat": 55.746644,
            "found": "Багратионовский проезд, 2А"
        },
        {
            "id": 91,
            "address": "Кутузовский проспект, д.71-1/1, стр.1",
            "long": 37.453288,
            "lat": 55.724241,
            "found": "Кутузовский проспект, 71/1с1"
        },
        {
            "id": 92,
            "address": "Ул. Малая Филевская, д.58, стр.1",
            "long": 37.447836,
            "lat": 55.734136,
            "found": "Малая Филёвская улица, 58"
        },
        {
            "id": 93,
            "address": "Проспект Вернадского, д. 39А",
            "long": 37.506047,
            "lat": 55.676281,
            "found": "проспект Вернадского, 39А"
        },
        {
            "id": 94,
            "address": "Проспект Вернадского, д. 39Б",
            "long": 37.505894,
            "lat": 55.675544,
            "found": "проспект Вернадского, 39"
        },
        {
            "id": 95,
            "address": "МКАД, 51-й км, д. 1",
            "long": 37.414616,
            "lat": 55.689009,
            "found": "МКАД, 51-й километр, 1"
        },
        {
            "id": 96,
            "address": "Мичуринский проспект, д. 45А",
            "long": 37.483714,
            "lat": 55.688979,
            "found": "Мичуринский проспект, 45А"
        },
        {
            "id": 97,
            "address": "Ул. Раменки, д. 5А",
            "long": 37.494503,
            "lat": 55.693104,
            "found": "улица Раменки, 5А"
        },
        {
            "id": 98,
            "address": "Ул. Раменки, д. 5Б",
            "long": 37.493793,
            "lat": 55.69249,
            "found": "улица Раменки, 5Б"
        },
        {
            "id": 99,
            "address": "Ул. Героев Панфиловцев, д.1/2, стр.2",
            "long": 37.438709,
            "lat": 55.851439,
            "found": "улица Героев Панфиловцев, 1/2с2"
        },
        {
            "id": 100,
            "address": "Строгинский бульвар, вл.26, стр.1",
            "long": 37.402525,
            "lat": 55.802391,
            "found": "Строгинский бульвар, 26к1"
        },
        {
            "id": 101,
            "address": "Ул. Тушинская, вл. 24",
            "long": 37.436059,
            "lat": 55.828546,
            "found": "Тушинская улица, 24"
        },
        {
            "id": 102,
            "address": "Ленинградский проспект, д.27, стр.6",
            "long": 37.565677,
            "lat": 55.783939,
            "found": "Ленинградский проспект, 27с2"
        },
        {
            "id": 103,
            "address": "Ленинградский проспект, д.27, стр.7",
            "long": 37.565677,
            "lat": 55.783939,
            "found": "Ленинградский проспект, 27с2"
        },
        {
            "id": 104,
            "address": "Ленинградский проспект, д.48/2, стр.10",
            "long": 37.54383,
            "lat": 55.796496,
            "found": "Ленинградский проспект, 48/2с6"
        },
        {
            "id": 105,
            "address": "Ленинградское шоссе, д.9 стр.4",
            "long": 37.497998,
            "lat": 55.81691,
            "found": "Ленинградское шоссе, 9с4"
        },
        {
            "id": 106,
            "address": "Коровинское шоссе, вл. 33А",
            "long": 37.5183,
            "lat": 55.882237,
            "found": "Коровинское шоссе, 33А"
        }
    ]
}